{"Abila Scrapyard": {"canonical": true,
  "category": "Industrial",
  "lat": 36.07433694,
  "long": 24.845923000000006,
  "name": "Abila Scrapyard"},
 "Abila Zacharo": {"canonical": true,
  "category": "Dining",
  "lat": 36.06342003,
  "long": 24.85096394,
  "name": "Abila Zacharo"},
 "Ada Campo-Corrente home": {"canonical": true,
  "category": "Home",
  "lat": 36.07681996,
  "long": 24.865864,
  "name": "Ada Campo-Corrente home"},
 "Adra Nubarron home": {"canonical": false,
  "category": "Home",
  "lat": 36.05942096,
  "long": 24.89476502,
  "name": "Adra Nubarron home"},
 "Ahaggo Museum": {"canonical": true,
  "category": "Recreation",
  "lat": 36.07711996,
  "long": 24.87616405,
  "name": "Ahaggo Museum"},
 "Al's Affordable Apartments": {"canonical": true,
  "category": "Apartment",
  "lat": 36.06032097,
  "long": 24.905565,
  "name": "Al's Affordable Apartments"},
 "Albert's Fine Clothing": {"canonical": true,
  "category": "Shopping",
  "lat": 36.07521998,
  "long": 24.85626403,
  "name": "Albert's Fine Clothing"},
 "Bean There Done That": {"canonical": true,
  "category": "Dining",
  "lat": 36.08171996,
  "long": 24.85086306,
  "name": "Bean There Done That"},
 "Bertrand Ovan home": {"canonical": false,
  "category": "Home",
  "lat": 36.05942096,
  "long": 24.89476502,
  "name": "Bertrand Ovan home"},
 "Birgitta Frente home": {"canonical": false,
  "category": "Home",
  "lat": 36.06332099,
  "long": 24.89606499,
  "name": "Birgitta Frente home"},
 "Brand Tempestad home": {"canonical": false,
  "category": "Home",
  "lat": 36.06242099,
  "long": 24.89876502,
  "name": "Brand Tempestad home"},
 "Brew've Been Served": {"canonical": true,
  "category": "Coffee",
  "lat": 36.05402103,
  "long": 24.90116504,
  "name": "Brew've Been Served"},
 "Brewed Awakenings": {"canonical": true,
  "category": "Coffee",
  "lat": 36.07332,
  "long": 24.86416394,
  "name": "Brewed Awakenings"},
 "Carly's Coffee": {"canonical": true,
  "category": "Coffee",
  "lat": 36.05852603,
  "long": 24.85646603,
  "name": "Carly's Coffee"},
 "Carlyle Chemical Inc.": {"canonical": true,
  "category": "Industrial",
  "lat": 36.05852003,
  "long": 24.88086505,
  "name": "Carlyle Chemical Inc."},
 "Chostus Hotel": {"canonical": true,
  "category": "Lodging",
  "lat": 36.07062102,
  "long": 24.89516499,
  "name": "Chostus Hotel"},
 "Coffee Cameleon": {"canonical": true,
  "category": "Coffee",
  "lat": 36.05462103,
  "long": 24.88976505,
  "name": "Coffee Cameleon"},
 "Coffee Shack": {"canonical": true,
  "category": "Coffee",
  "lat": 36.07431997,
  "long": 24.857564,
  "name": "Coffee Shack"},
 "Coral Cliff Golf Club": {"canonical": true,
  "category": "Recreation",
  "lat": 36.08952003,
  "long": 24.86066295,
  "name": "Coral Cliff Golf Club"},
 "Cup o' Joe": {"canonical": true,
  "category": "Coffee",
  "lat": 36.05281998,
  "long": 24.87876503,
  "name": "Cup o' Joe"},
 "Dancing Dolphin": {"canonical": true,
  "category": "Apartment",
  "lat": 36.05942096,
  "long": 24.89476502,
  "name": "Dancing Dolphin"},
 "Edward Vann home": {"canonical": true,
  "category": "Home",
  "lat": 36.067645,
  "long": 24.90243004,
  "name": "Edward Vann home"},
 "Felix Balas home": {"canonical": true,
  "category": "Home",
  "lat": 36.08661997,
  "long": 24.85756296,
  "name": "Felix Balas home"},
 "Felix Resumir home": {"canonical": false,
  "category": "Home",
  "lat": 36.05842099,
  "long": 24.900965,
  "name": "Felix Resumir home"},
 "Frank's Fuel": {"canonical": true,
  "category": "Gas",
  "lat": 36.07211999,
  "long": 24.84126297,
  "name": "Frank's Fuel"},
 "Frydos Autosupply n' More": {"canonical": true,
  "category": "Shopping",
  "lat": 36.05492104,
  "long": 24.90176504,
  "name": "Frydos Autosupply n' More"},
 "Fuel and Gruel": {"canonical": true,
  "category": "Gas",
  "lat": 36.055321,
  "long": 24.90046496,
  "name": "Fuel and Gruel"},
 "GAStech-Kronos": {"canonical": true,
  "category": "GASTech",
  "lat": 36.04802097,
  "long": 24.87956496,
  "name": "GAStech-Kronos"},
 "Gelatogalore": {"canonical": true,
  "category": "Dining",
  "lat": 36.05970699,
  "long": 24.85797101,
  "name": "Gelatogalore"},
 "General Grocer": {"canonical": true,
  "category": "Shopping",
  "lat": 36.06032004,
  "long": 24.85646395,
  "name": "General Grocer"},
 "Govt Building": {"canonical": true,
  "category": "Public",
  "lat": 36.05313199,
  "long": 24.84675202,
  "name": "Govt Building"},
 "Gustav Cazar home": {"canonical": true,
  "category": "Home",
  "lat": 36.08421995,
  "long": 24.85636295,
  "name": "Gustav Cazar home"},
 "Guy's Gyros": {"canonical": true,
  "category": "Dining",
  "lat": 36.05572097,
  "long": 24.90246501,
  "name": "Guy's Gyros"},
 "Hallowed Grounds": {"canonical": true,
  "category": "Coffee",
  "lat": 36.06362100000001,
  "long": 24.88586502,
  "name": "Hallowed Grounds"},
 "Hennie Osvaldo home": {"canonical": false,
  "category": "Home",
  "lat": 36.06332099,
  "long": 24.89606499,
  "name": "Hennie Osvaldo home"},
 "Hideki Cocinaro home": {"canonical": true,
  "category": "Home",
  "lat": 36.06772096,
  "long": 24.89906502,
  "name": "Hideki Cocinaro home"},
 "Hippokampos": {"canonical": true,
  "category": "Dining",
  "lat": 36.07662003,
  "long": 24.857564,
  "name": "Hippokampos"},
 "Hospital": {"canonical": true,
  "category": "Public",
  "lat": 36.05482003,
  "long": 24.879465,
  "name": "Hospital"},
 "Industrial Supplies Consolidated": {"canonical": true,
  "category": "Shopping",
  "lat": 36.04602103,
  "long": 24.90136496,
  "name": "Industrial Supplies Consolidated"},
 "Inga Ferro home": {"canonical": false,
  "category": "Home",
  "lat": 36.06032097,
  "long": 24.905565,
  "name": "Inga Ferro home"},
 "Ingrid Barranco home": {"canonical": true,
  "category": "Home",
  "lat": 36.07817903,
  "long": 24.87211199,
  "name": "Ingrid Barranco home"},
 "Isande Barrrasca home": {"canonical": true,
  "category": "Home",
  "lat": 36.08441999,
  "long": 24.86416394,
  "name": "Isande Barrrasca home"},
 "Isia Vann home": {"canonical": false,
  "category": "Home",
  "lat": 36.06032097,
  "long": 24.905565,
  "name": "Isia Vann home"},
 "Izak Baza home": {"canonical": true,
  "category": "Home",
  "lat": 36.06729306,
  "long": 24.87788303,
  "name": "Izak Baza home"},
 "Jack's Magical Beans": {"canonical": true,
  "category": "Coffee",
  "lat": 36.06749598,
  "long": 24.87331004,
  "name": "Jack's Magical Beans"},
 "Kalami Kafenion": {"canonical": true,
  "category": "Dining",
  "lat": 36.06582005,
  "long": 24.85236399,
  "name": "Kalami Kafenion"},
 "Kanon Herrero home": {"canonical": false,
  "category": "Home",
  "lat": 36.05842099,
  "long": 24.900965,
  "name": "Kanon Herrero home"},
 "Kare Orilla home": {"canonical": true,
  "category": "Home",
  "lat": 36.06922005,
  "long": 24.88416404,
  "name": "Kare Orilla home"},
 "Katerina's Café": {"canonical": true,
  "category": "Coffee",
  "lat": 36.05442099,
  "long": 24.89986495,
  "name": "Katerina's Café"},
 "Kronos International Airport": {"canonical": true,
  "category": "Public",
  "lat": 36.05092,
  "long": 24.82586299,
  "name": "Kronos International Airport"},
 "Kronos Mart": {"canonical": true,
  "category": "Shopping",
  "lat": 36.06582005,
  "long": 24.84976405,
  "name": "Kronos Mart"},
 "Kronos Pipe and Irrigation": {"canonical": true,
  "category": "Industrial",
  "lat": 36.06522005,
  "long": 24.83306305,
  "name": "Kronos Pipe and Irrigation"},
 "Lars Azada home": {"canonical": true,
  "category": "Home",
  "lat": 36.08541996,
  "long": 24.86036399,
  "name": "Lars Azada home"},
 "Lidelse Dedos home": {"canonical": false,
  "category": "Home",
  "lat": 36.06332099,
  "long": 24.89606499,
  "name": "Lidelse Dedos home"},
 "Linnea Bergen home": {"canonical": false,
  "category": "Home",
  "lat": 36.05942096,
  "long": 24.89476502,
  "name": "Linnea Bergen home"},
 "Loreto Bodrogi home": {"canonical": false,
  "category": "Home",
  "lat": 36.06032097,
  "long": 24.905565,
  "name": "Loreto Bodrogi home"},
 "Lucas Alcazar home": {"canonical": true,
  "category": "Home",
  "lat": 36.06641406,
  "long": 24.88256603,
  "name": "Lucas Alcazar home"},
 "Marin Onda home": {"canonical": true,
  "category": "Home",
  "lat": 36.07292004,
  "long": 24.883964,
  "name": "Marin Onda home"},
 "Maximum Iron and Steel": {"canonical": true,
  "category": "Industrial",
  "lat": 36.06402004,
  "long": 24.84136305,
  "name": "Maximum Iron and Steel"},
 "Minke Mies home": {"canonical": false,
  "category": "Home",
  "lat": 36.06242099,
  "long": 24.89876502,
  "name": "Minke Mies home"},
 "Nationwide Refinery": {"canonical": true,
  "category": "Industrial",
  "lat": 36.05842099,
  "long": 24.88546506,
  "name": "Nationwide Refinery"},
 "Nils Calixto home": {"canonical": true,
  "category": "Home",
  "lat": 36.06721999,
  "long": 24.88586398,
  "name": "Nils Calixto home"},
 "Ocean Breeze": {"canonical": true,
  "category": "Apartment",
  "lat": 36.05582104,
  "long": 24.89556495,
  "name": "Ocean Breeze"},
 "Octavio's Office Supplies": {"canonical": true,
  "category": "Shopping",
  "lat": 36.05852603,
  "long": 24.85788501,
  "name": "Octavio's Office Supplies"},
 "Office More": {"canonical": true,
  "category": "Shopping",
  "lat": 36.06201998,
  "long": 24.85096394,
  "name": "Office More"},
 "Orhan Strum home": {"canonical": true,
  "category": "Home",
  "lat": 36.07211399,
  "long": 24.87458404,
  "name": "Orhan Strum home"},
 "Ouzeri Elian": {"canonical": true,
  "category": "Dining",
  "lat": 36.05191997,
  "long": 24.870764,
  "name": "Ouzeri Elian"},
 "Paradise Condos": {"canonical": true,
  "category": "Apartment",
  "lat": 36.05842099,
  "long": 24.900965,
  "name": "Paradise Condos"},
 "Park": {"canonical": true,
  "category": "Recreation",
  "lat": 36.05292006,
  "long": 24.84936397,
  "name": "Park"},
 "Roberts and Sons": {"canonical": true,
  "category": "Shopping",
  "lat": 36.06324804,
  "long": 24.85226403,
  "name": "Roberts and Sons"},
 "Seaside Living": {"canonical": true,
  "category": "Apartment",
  "lat": 36.06242099,
  "long": 24.89876502,
  "name": "Seaside Living"},
 "Shoppers' Delight": {"canonical": true,
  "category": "Shopping",
  "lat": 36.05281998,
  "long": 24.86856402,
  "name": "Shoppers' Delight"},
 "Stenig Fusil home": {"canonical": true,
  "category": "Home",
  "lat": 36.06582098,
  "long": 24.900965,
  "name": "Stenig Fusil home"},
 "Stewart and Sons Fabrication": {"canonical": true,
  "category": "Industrial",
  "lat": 36.05409005,
  "long": 24.90806094,
  "name": "Stewart and Sons Fabrication"},
 "Sven Flecha home": {"canonical": false,
  "category": "Home",
  "lat": 36.06242099,
  "long": 24.89876502,
  "name": "Sven Flecha home"},
 "U-Pump": {"canonical": true,
  "category": "Gas",
  "lat": 36.06772003,
  "long": 24.87146397,
  "name": "U-Pump"},
 "Varja Lagos home": {"canonical": false,
  "category": "Home",
  "lat": 36.05842099,
  "long": 24.900965,
  "name": "Varja Lagos home"},
 "Vira Frente home": {"canonical": true,
  "category": "Home",
  "lat": 36.08781998,
  "long": 24.85626299,
  "name": "Vira Frente home"},
 "Willem Vasco-Pais home": {"canonical": true,
  "category": "Home",
  "lat": 36.07621995,
  "long": 24.87466404,
  "name": "Willem Vasco-Pais home"},
 "Windward Apartments": {"canonical": true,
  "category": "Apartment",
  "lat": 36.06332099,
  "long": 24.89606499,
  "name": "Windward Apartments"}}